{
  "pharmacy": [
    {
      "no": 1,
      "name": "현대동물병원",
      "address": "인천광역시 중구 신흥동3가 6번지 11호",
      "latitude": 37.4656894,
      "longitude": 126.6355385
    },
    {
      "no": 2,
      "name": "참 동물병원",
      "address": "인천광역시 중구 내동 209번지 42호",
      "latitude": 37.4720316,
      "longitude": 126.6279316
    },
    {
      "no": 3,
      "name": "경동동물병원",
      "address": "인천광역시 중구 경동 240번지 60호",
      "latitude": 37.471864,
      "longitude": 126.6299433
    },
    {
      "no": 4,
      "name": "하늘동물병원",
      "address": "인천광역시 중구 운서동 2789번지 2호 시에로빌 103호",
      "latitude": 37.4948683,
      "longitude": 126.4889915
    },
    {
      "no": 5,
      "name": "숲속동물병원",
      "address": "인천광역시 중구 중산동 1886번지 20호",
      "latitude": 37.4888165,
      "longitude": 126.5642423
    },
    {
      "no": 6,
      "name": "영종H동물의료센터",
      "address": "인천광역시 중구 중산동 1873번지 3호",
      "latitude": 37.4853248,
      "longitude": 126.5618202
    },
    {
      "no": 7,
      "name": "리라동물병원",
      "address": "인천광역시 중구 중산동 1884번지 2호",
      "latitude": 37.4890814,
      "longitude": 126.5614594
    },
    {
      "no": 8,
      "name": "위드펫동물병원",
      "address": "인천광역시 중구 중산동 1876번지 8호",
      "latitude": 37.4869235,
      "longitude": 126.5593666
    },
    {
      "no": 9,
      "name": "한양한방동물병원",
      "address": "인천광역시 중구 용동 133번지",
      "latitude": 37.4734434,
      "longitude": 126.6310762
    },
    {
      "no": 10,
      "name": "신공항동물병원",
      "address": "인천광역시 중구 운남동 1570번지 2호",
      "latitude": 37.4890082,
      "longitude": 126.5332721
    },
    {
      "no": 11,
      "name": "동산동물병원",
      "address": "인천광역시 동구 송림동 60번지 30호",
      "latitude": 37.4750293,
      "longitude": 126.6456389
    },
    {
      "no": 12,
      "name": "송림동물병원",
      "address": "인천광역시 동구 송림동 49번지 13호 송영빌딩",
      "latitude": 37.477324,
      "longitude": 126.6466161
    },
    {
      "no": 13,
      "name": "웰니스 클리닉 동물병원",
      "address": "인천광역시 동구 송림동 296번지 2호 이마트",
      "latitude": 37.4840223,
      "longitude": 126.6613519
    },
    {
      "no": 14,
      "name": "인천종합동물병원",
      "address": "인천광역시 동구 송현동 99번지 15호",
      "latitude": 37.4764762,
      "longitude": 126.6340635
    },
    {
      "no": 15,
      "name": "미라클 동물병원",
      "address": "인천광역시 연수구 송도동 21번지 65호 현대힐스테이트 602동 143호",
      "latitude": 37.3961169,
      "longitude": 126.6468266
    },
    {
      "no": 16,
      "name": "주주동물병원",
      "address": "인천광역시 연수구 송도동 4번지 1호 송도더샵퍼스트월드 E동 10,11호",
      "latitude": 37.390661,
      "longitude": 126.6463204
    },
    {
      "no": 17,
      "name": "송도건국동물병원",
      "address": "인천광역시 연수구 송도동 190번지 2호 송도글로벌캠퍼스푸르지오 상가 203동 207호",
      "latitude": 37.3738714,
      "longitude": 126.6512058
    },
    {
      "no": 18,
      "name": "닥터정 동물병원",
      "address": "인천광역시 연수구 송도동 98번지 2호 송도아라플라자",
      "latitude": 37.3897241,
      "longitude": 126.6333018
    },
    {
      "no": 19,
      "name": "동물사랑동물병원",
      "address": "인천광역시 연수구 선학동 407번지 9호 민선빌딩",
      "latitude": 37.4258376,
      "longitude": 126.6982438
    },
    {
      "no": 20,
      "name": "Central 동물병원",
      "address": "인천광역시 연수구 송도동 23번지 4호 더샵센트럴파크2차상가 C동 128호",
      "latitude": 37.3944665,
      "longitude": 126.6410072
    },
    {
      "no": 21,
      "name": "인천광역시 야생동물구조관리센터",
      "address": "인천광역시 연수구 송도동 13번지 20호 자연학습관",
      "latitude": 37.3755804,
      "longitude": 126.6382403
    },
    {
      "no": 22,
      "name": "베리떼 동물병원",
      "address": "인천광역시 연수구 송도동 21번지 11호 레드원프라자 103호",
      "latitude": 37.3961169,
      "longitude": 126.6468266
    },
    {
      "no": 23,
      "name": "그루동물병원",
      "address": "인천광역시 연수구 연수동 536번지 동남아파트 115호",
      "latitude": 37.423908,
      "longitude": 126.6750031
    },
    {
      "no": 24,
      "name": "ACE동물병원",
      "address": "인천광역시 연수구 송도동 23번지 4호 더샵 센트럴파크2 B동 101호",
      "latitude": 37.3928930999999,
      "longitude": 126.6442538
    },
    {
      "no": 25,
      "name": "드림동물병원",
      "address": "인천광역시 연수구 동춘동 937번지 11호 상산빌딩 105호",
      "latitude": 37.4066878,
      "longitude": 126.6703374
    },
    {
      "no": 26,
      "name": "디오 동물병원",
      "address": "인천광역시 연수구 송도동 149번지 롯데캐슬캠퍼스타운 상가 A동",
      "latitude": 37.3880279,
      "longitude": 126.6650673
    },
    {
      "no": 27,
      "name": "웰 동물병원",
      "address": "인천광역시 연수구 청학동 503번지 3호 소망글로벌 109호",
      "latitude": 37.4153411,
      "longitude": 126.6763649
    },
    {
      "no": 28,
      "name": "따뜻한 동물병원",
      "address": "인천광역시 연수구 연수동 624번지 7호",
      "latitude": 37.4137297,
      "longitude": 126.6798716
    },
    {
      "no": 29,
      "name": "24시 송도힐 동물메디컬센터",
      "address": "인천광역시 연수구 송도동 2번지 3호 이안아파트 상가동 107호",
      "latitude": 37.3945323,
      "longitude": 126.6576615
    },
    {
      "no": 30,
      "name": "토비동물병원",
      "address": "인천광역시 연수구 송도동 19번지 1호 커낼워크D2 SUMMER 211호",
      "latitude": 37.3992714,
      "longitude": 126.6370075
    },
    {
      "no": 31,
      "name": "바른동물병원",
      "address": "인천광역시 연수구 송도동 311번지 랜드마크시티센트럴더샵 판매시설동 1층 8호",
      "latitude": 37.415518,
      "longitude": 126.6194208
    },
    {
      "no": 32,
      "name": "모두애동물병원",
      "address": "인천광역시 연수구 송도동 316번지 힐스테이트 송도 더테라스 판매시설S동 170호",
      "latitude": 37.4104795,
      "longitude": 126.6265837
    },
    {
      "no": 33,
      "name": "우성동물병원",
      "address": "인천광역시 연수구 옥련동 563번지 7호 2층",
      "latitude": 37.4179348,
      "longitude": 126.6521347
    },
    {
      "no": 34,
      "name": "24시송도오케이동물의료센터",
      "address": "인천광역시 연수구 송도동 311번지 랜드마크시티센트럴더샵 261~5호",
      "latitude": 37.415518,
      "longitude": 126.6194208
    },
    {
      "no": 35,
      "name": "포시즌 동물병원",
      "address": "인천광역시 연수구 송도동 30번지 18호 주유소 3동 2층호",
      "latitude": 37.3982533,
      "longitude": 126.6290985
    },
    {
      "no": 36,
      "name": "연수동물메디컬센터",
      "address": "인천광역시 연수구 연수동 600번지 5호",
      "latitude": 37.4126055,
      "longitude": 126.676993
    },
    {
      "no": 37,
      "name": "라파엘 동물병원",
      "address": "인천광역시 연수구 송도동 21번지 24호",
      "latitude": 37.3961169,
      "longitude": 126.6468266
    },
    {
      "no": 38,
      "name": "아름다운 동물병원",
      "address": "인천광역시 연수구 송도동 3번지 29호 서운프라자",
      "latitude": 37.3937931,
      "longitude": 126.6508549
    },
    {
      "no": 39,
      "name": "호랑이 동물병원",
      "address": "인천광역시 연수구 송도동 190번지 2호 송도글로벌캠퍼스푸르지오 205동 110호",
      "latitude": 37.3738714,
      "longitude": 126.6512058
    },
    {
      "no": 40,
      "name": "24시 송도 온 동물의료센터",
      "address": "인천광역시 연수구 송도동 92번지 더샵송도센트럴파크Ⅲ",
      "latitude": 37.38915,
      "longitude": 126.63863
    },
    {
      "no": 41,
      "name": "애니펫동물병원",
      "address": "인천광역시 연수구 송도동 15번지 10호 송도 더 프라우 3단지 303동 123~125호",
      "latitude": 37.399358,
      "longitude": 126.6515386
    },
    {
      "no": 42,
      "name": "투게더 동물병원",
      "address": "인천광역시 연수구 송도동 96번지 리치센트럴 2층 237호",
      "latitude": 37.3890283,
      "longitude": 126.6352626
    },
    {
      "no": 43,
      "name": "송도 아이본 동물의료센터",
      "address": "인천광역시 연수구 동춘동 816번지 4호 1,2층",
      "latitude": 37.4130227,
      "longitude": 126.6542754
    },
    {
      "no": 44,
      "name": "페톰스동물병원",
      "address": "인천광역시 연수구 송도동 9번지 19호 에몬스프라자 2층 205,205-1호",
      "latitude": 37.3798676,
      "longitude": 126.6482533
    },
    {
      "no": 45,
      "name": "플러스동물병원",
      "address": "인천광역시 연수구 송도동 155번지 송도아메리칸타운아이파크 104동 104,105호",
      "latitude": 37.3850524,
      "longitude": 126.6622166
    },
    {
      "no": 46,
      "name": "청아동물병원",
      "address": "인천광역시 연수구 청학동 451번지 시대아파트 상가동 1층 118호",
      "latitude": 37.4212544,
      "longitude": 126.6693782
    },
    {
      "no": 47,
      "name": "송도 클로버동물병원",
      "address": "인천광역시 연수구 송도동 10번지 7호  220호",
      "latitude": 37.3816069,
      "longitude": 126.6361291
    },
    {
      "no": 48,
      "name": "프라자 동물병원",
      "address": "인천광역시 연수구 송도동 2번지 6호 송도프라자 117호",
      "latitude": 37.3892835,
      "longitude": 126.644542
    },
    {
      "no": 49,
      "name": "아프리카동물병원",
      "address": "인천광역시 연수구 옥련동 304번지 12호",
      "latitude": 37.427676,
      "longitude": 126.6564466
    },
    {
      "no": 50,
      "name": "송도종합동물병원",
      "address": "인천광역시 연수구 옥련동 336번지 8호 청학만신당",
      "latitude": 37.4262487,
      "longitude": 126.6562862
    },
    {
      "no": 51,
      "name": "신퍼피클럽 동물병원",
      "address": "인천광역시 연수구 연수동 522번지 3호",
      "latitude": 37.4253256,
      "longitude": 126.6849302
    },
    {
      "no": 52,
      "name": "웰니스클리닉 연수점",
      "address": "인천광역시 연수구 동춘동 926번지 9호 이마트",
      "latitude": 37.4059785,
      "longitude": 126.6837028
    },
    {
      "no": 53,
      "name": "노성남 동물병원",
      "address": "인천광역시 연수구 옥련동 196번지",
      "latitude": 37.4256538,
      "longitude": 126.6443703
    },
    {
      "no": 54,
      "name": "이광수동물병원",
      "address": "인천광역시 연수구 동춘동 936번지 6호 맘모스빌딩",
      "latitude": 37.4076321,
      "longitude": 126.6723371
    },
    {
      "no": 55,
      "name": "소망동물병원",
      "address": "인천광역시 남동구 구월동 1149번지 5호 1층",
      "latitude": 37.4489937,
      "longitude": 126.7072253
    },
    {
      "no": 56,
      "name": "애니힐동물병원",
      "address": "인천광역시 남동구 구월동 1526번지 1호",
      "latitude": 37.4426455,
      "longitude": 126.7145134
    },
    {
      "no": 57,
      "name": "동물의왕국 동물병원",
      "address": "인천광역시 남동구 구월동 1406번지 9호",
      "latitude": 37.4454569,
      "longitude": 126.6986317
    },
    {
      "no": 58,
      "name": "덕수동물병원",
      "address": "인천광역시 남동구 간석동 900번지 153호",
      "latitude": 37.4594533,
      "longitude": 126.6955505
    },
    {
      "no": 59,
      "name": "정서동물병원",
      "address": "인천광역시 남동구 간석동",
      "latitude": 37.4655363,
      "longitude": 126.7072025
    },
    {
      "no": 60,
      "name": "동암동물병원",
      "address": "인천광역시 남동구 간석동 570번지 5호",
      "latitude": 37.4685516,
      "longitude": 126.6989053
    },
    {
      "no": 61,
      "name": "도그플러스동물병원",
      "address": "인천광역시 남동구 간석동 616번지 3호",
      "latitude": 37.4687807,
      "longitude": 126.6900488
    },
    {
      "no": 62,
      "name": "마이펫 동물병원",
      "address": "인천광역시 남동구 간석동 216번지 4호",
      "latitude": 37.4676964,
      "longitude": 126.7076689
    },
    {
      "no": 63,
      "name": "D&C동물병원",
      "address": "인천광역시 남동구 간석동 573번지 1호 성우네오빌 105~107호",
      "latitude": 37.4680894,
      "longitude": 126.7002909
    },
    {
      "no": 64,
      "name": "젬마동물병원",
      "address": "인천광역시 남동구 만수동 948번지 4호",
      "latitude": 37.4547477,
      "longitude": 126.7317765
    },
    {
      "no": 65,
      "name": "신세계동물병원",
      "address": "인천광역시 남동구 만수동 879번지 2호",
      "latitude": 37.4568708,
      "longitude": 126.7273856
    },
    {
      "no": 66,
      "name": "하태흥반려동물의료센터",
      "address": "인천광역시 남동구 만수동 102번지 8호",
      "latitude": 37.4575583,
      "longitude": 126.7300763
    },
    {
      "no": 67,
      "name": "좋은 친구들 동물병원",
      "address": "인천광역시 남동구 만수동 869번지 11호",
      "latitude": 37.4598165,
      "longitude": 126.7309042
    },
    {
      "no": 68,
      "name": "필종합동물병원",
      "address": "인천광역시 남동구 남촌동 333번지 5호 1층",
      "latitude": 37.431465,
      "longitude": 126.7159646
    },
    {
      "no": 69,
      "name": "해피동물병원",
      "address": "인천광역시 남동구 논현동 619번지 15호",
      "latitude": 37.4025954,
      "longitude": 126.7209699
    },
    {
      "no": 70,
      "name": "세우리동물병원",
      "address": "인천광역시 남동구 간석동 921번지 15호",
      "latitude": 37.4614256,
      "longitude": 126.7205113
    },
    {
      "no": 71,
      "name": "메이동물병원",
      "address": "인천광역시 남동구 만수동 1118번지 1호",
      "latitude": 37.4612084,
      "longitude": 126.7325795
    },
    {
      "no": 72,
      "name": "우리애동물병원",
      "address": "인천광역시 남동구 논현동 671번지 1호  109호",
      "latitude": 37.4014599,
      "longitude": 126.7344822
    },
    {
      "no": 73,
      "name": "보듬동물병원",
      "address": "인천광역시 남동구 서창동 663번지 1호",
      "latitude": 37.4244471,
      "longitude": 126.7503517
    },
    {
      "no": 74,
      "name": "소래동물병원",
      "address": "인천광역시 남동구 논현동 751번지 1호",
      "latitude": 37.3997983,
      "longitude": 126.7321897
    },
    {
      "no": 75,
      "name": "보람동물병원",
      "address": "인천광역시 남동구 구월동 1394번지 9호",
      "latitude": 37.446727,
      "longitude": 126.6938296
    },
    {
      "no": 76,
      "name": "인천 24시 스카이동물메디컬센터",
      "address": "인천광역시 남동구 구월동 1608번지 신영구월지웰시티푸르지오",
      "latitude": 37.4542639,
      "longitude": 126.7071056
    },
    {
      "no": 77,
      "name": "파스텔LC동물병원",
      "address": "인천광역시 남동구 간석동 292번지 4호",
      "latitude": 37.4570757,
      "longitude": 126.7084426
    },
    {
      "no": 78,
      "name": "우리집동물병원",
      "address": "인천광역시 남동구 논현동 746번지 6호 가산타워 104호",
      "latitude": 37.3986801,
      "longitude": 126.7258882
    },
    {
      "no": 79,
      "name": "독스동물병원",
      "address": "인천광역시 남동구 간석동 210번지 2호 1층, 지하1층",
      "latitude": 37.46366,
      "longitude": 126.7087425
    },
    {
      "no": 80,
      "name": "바나나동물병원",
      "address": "인천광역시 남동구 구월동 1264번지",
      "latitude": 37.4555232,
      "longitude": 126.7196741
    },
    {
      "no": 81,
      "name": "조은동물병원",
      "address": "인천광역시 남동구 논현동 561번지 2호",
      "latitude": 37.4138817,
      "longitude": 126.7117956
    },
    {
      "no": 82,
      "name": "멍멍냐옹동물병원",
      "address": "인천광역시 남동구 구월동 1132번지 15호",
      "latitude": 37.45304,
      "longitude": 126.7031933
    },
    {
      "no": 83,
      "name": "해와달동물병원",
      "address": "인천광역시 남동구 논현동 733번지 5호",
      "latitude": 37.3991963,
      "longitude": 126.7265526
    },
    {
      "no": 84,
      "name": "길동물병원",
      "address": "인천광역시 남동구 만수동 889번지 15호",
      "latitude": 37.4558493,
      "longitude": 126.7256097
    },
    {
      "no": 85,
      "name": "루이스24시동물병원",
      "address": "인천광역시 남동구 만수동 850번지 5호",
      "latitude": 37.4607168,
      "longitude": 126.7231779
    },
    {
      "no": 86,
      "name": "웰동물메디컬센터",
      "address": "인천광역시 남동구 구월동 1145번지 6호",
      "latitude": 37.4506102,
      "longitude": 126.7064885
    },
    {
      "no": 87,
      "name": "찬샘동물병원",
      "address": "인천광역시 남동구 구월동 1132번지 타원벨라움",
      "latitude": 37.45304,
      "longitude": 126.7031933
    },
    {
      "no": 88,
      "name": "물빛동물병원",
      "address": "인천광역시 남동구 서창동 687번지 1호",
      "latitude": 37.4252908,
      "longitude": 126.748678
    },
    {
      "no": 89,
      "name": "9월의 소원 동물병원",
      "address": "인천광역시 남동구 구월동 1199번지 1호 그랜드프라자 204,205호",
      "latitude": 37.4527498,
      "longitude": 126.7084917
    },
    {
      "no": 90,
      "name": "24시 인천동물병원 치료해주오",
      "address": "인천광역시 남동구 논현동 637번지 2호 코아루파크",
      "latitude": 37.4014391,
      "longitude": 126.7104169
    },
    {
      "no": 91,
      "name": "코지동물의료센터",
      "address": "인천광역시 남동구 논현동 672번지 4호",
      "latitude": 37.4025314,
      "longitude": 126.7356893
    },
    {
      "no": 92,
      "name": "백슬동물병원",
      "address": "인천광역시 남동구 구월동 1130번지 CGV 홈플러스",
      "latitude": 37.4519297999999,
      "longitude": 126.7018875
    },
    {
      "no": 93,
      "name": "행복한 동물병원",
      "address": "인천광역시 남동구 만수동 916번지 2호",
      "latitude": 37.4552906,
      "longitude": 126.7252289
    },
    {
      "no": 94,
      "name": "인천24시유앤미동물병원",
      "address": "인천광역시 남동구 간석동 210번지 9호 동성빌딩",
      "latitude": 37.46366,
      "longitude": 126.7087425
    },
    {
      "no": 95,
      "name": "강아지와고양이나라 동물병원",
      "address": "인천광역시 남동구 논현동 605번지 11호",
      "latitude": 37.4047349,
      "longitude": 126.7251568
    },
    {
      "no": 96,
      "name": "논현동물병원",
      "address": "인천광역시 남동구 논현동 751번지 1호",
      "latitude": 37.3997983,
      "longitude": 126.7321897
    },
    {
      "no": 97,
      "name": "만수동물병원",
      "address": "인천광역시 남동구 만수동 1025번지 11호",
      "latitude": 37.4449407,
      "longitude": 126.7390193
    },
    {
      "no": 98,
      "name": "해맑은동물병원",
      "address": "인천광역시 남동구 만수동 1079번지 3호",
      "latitude": 37.4459905,
      "longitude": 126.7346155
    },
    {
      "no": 99,
      "name": "도그앤캣동물병원",
      "address": "인천광역시 부평구 부평동 341번지 160호",
      "latitude": 37.4914299,
      "longitude": 126.7197362
    },
    {
      "no": 100,
      "name": "동수사랑동물병원",
      "address": "인천광역시 부평구 부평동 754번지 92호 롯데아이원 203호",
      "latitude": 37.4860661,
      "longitude": 126.7189933
    },
    {
      "no": 101,
      "name": "펫사랑동물병원",
      "address": "인천광역시 부평구 산곡동 194번지 6호",
      "latitude": 37.5006487,
      "longitude": 126.7032328
    },
    {
      "no": 102,
      "name": "백마동물병원",
      "address": "인천광역시 부평구 부평동 431번지 15호  102호",
      "latitude": 37.5040901,
      "longitude": 126.7221099
    },
    {
      "no": 103,
      "name": "동수동물병원",
      "address": "인천광역시 부평구 부평동 182번지 10호",
      "latitude": 37.4903923,
      "longitude": 126.7273133
    },
    {
      "no": 104,
      "name": "보비동물병원",
      "address": "인천광역시 부평구 산곡동 411번지 5호",
      "latitude": 37.504241,
      "longitude": 126.7114205
    },
    {
      "no": 105,
      "name": "세림동물병원",
      "address": "인천광역시 부평구 산곡동 143번지 2호",
      "latitude": 37.5108236,
      "longitude": 126.6915089
    },
    {
      "no": 106,
      "name": "튼튼동물병원",
      "address": "인천광역시 부평구 청천동 386번지",
      "latitude": 37.5218441,
      "longitude": 126.7034893
    },
    {
      "no": 107,
      "name": "청천종합동물병원",
      "address": "인천광역시 부평구 청천동 174번지 7호",
      "latitude": 37.5173381,
      "longitude": 126.7045878
    },
    {
      "no": 108,
      "name": "짱구네동물병원",
      "address": "인천광역시 부평구 갈산동 59번지 5호",
      "latitude": 37.5176644,
      "longitude": 126.7299793
    },
    {
      "no": 109,
      "name": "서울종합동물병원",
      "address": "인천광역시 부평구 갈산동 364번지",
      "latitude": 37.5116045,
      "longitude": 126.725765
    },
    {
      "no": 110,
      "name": "늘푸른동물병원",
      "address": "인천광역시 부평구 삼산동 54번지 2호",
      "latitude": 37.5221769,
      "longitude": 126.7385365
    },
    {
      "no": 111,
      "name": "리치동물병원",
      "address": "인천광역시 부평구 삼산동 389번지 1호",
      "latitude": 37.5214113,
      "longitude": 126.7434432
    },
    {
      "no": 112,
      "name": "부개종합동물병원",
      "address": "인천광역시 부평구 부개동 498번지 11호",
      "latitude": 37.5032936,
      "longitude": 126.7366665
    },
    {
      "no": 113,
      "name": "삼산종합동물병원",
      "address": "인천광역시 부평구 삼산동 459번지 5호",
      "latitude": 37.5083065,
      "longitude": 126.7348223
    },
    {
      "no": 114,
      "name": "사랑동물병원",
      "address": "인천광역시 부평구 부개동 86번지 1호",
      "latitude": 37.4965958,
      "longitude": 126.737318
    },
    {
      "no": 115,
      "name": "애나동물병원",
      "address": "인천광역시 부평구 산곡동 2번지 10호 정진빌딩",
      "latitude": 37.5127415,
      "longitude": 126.7036429
    },
    {
      "no": 116,
      "name": "시민동물병원",
      "address": "인천광역시 부평구 부평동 756번지 151호 DS 까사 101호",
      "latitude": 37.4862172,
      "longitude": 126.7164557
    },
    {
      "no": 117,
      "name": "해원 동물병원",
      "address": "인천광역시 부평구 산곡동 51번지 3호 1층 104호~105호",
      "latitude": 37.5133329,
      "longitude": 126.700285
    },
    {
      "no": 118,
      "name": "온리동물병원",
      "address": "인천광역시 부평구 십정동 289번지 8호 더샵부평센트럴시티 상가동 F동 105호",
      "latitude": 37.4754873,
      "longitude": 126.697493
    },
    {
      "no": 119,
      "name": "삼산평생동물병원",
      "address": "인천광역시 부평구 삼산동 462번지 4호 유림프라자 201호",
      "latitude": 37.5083431,
      "longitude": 126.7339394
    },
    {
      "no": 120,
      "name": "부평 모모 동물병원",
      "address": "인천광역시 부평구 부평동 274번지 44호",
      "latitude": 37.4899158,
      "longitude": 126.7109847
    },
    {
      "no": 121,
      "name": "예동물병원",
      "address": "인천광역시 부평구 갈산동 385번지 10호",
      "latitude": 37.5086801,
      "longitude": 126.7289161
    },
    {
      "no": 122,
      "name": "부평24시 SKY 동물의료센터",
      "address": "인천광역시 부평구 부평동 126번지 8호",
      "latitude": 37.4986932,
      "longitude": 126.7311237
    },
    {
      "no": 123,
      "name": "부평종합동물의료센터",
      "address": "인천광역시 부평구 부평동 431번지 12호 204-2, 205-2, 206-210호",
      "latitude": 37.5040901,
      "longitude": 126.7221099
    },
    {
      "no": 124,
      "name": "아프리카 동물의료센터",
      "address": "인천광역시 부평구 삼산동 427번지 5호 덕성빌딩 3층",
      "latitude": 37.5166065,
      "longitude": 126.7326145
    },
    {
      "no": 125,
      "name": "부평프라임동물병원",
      "address": "인천광역시 부평구 부평동 179번지 16호 호진빌딩",
      "latitude": 37.4907338,
      "longitude": 126.7290351
    },
    {
      "no": 126,
      "name": "반디동물병원",
      "address": "인천광역시 부평구 삼산동 461번지 1호",
      "latitude": 37.5071853,
      "longitude": 126.7350682
    },
    {
      "no": 127,
      "name": "주주종합동물병원",
      "address": "인천광역시 부평구 부개동 301번지 38호",
      "latitude": 37.4874,
      "longitude": 126.7391022
    },
    {
      "no": 128,
      "name": "현대동물병원",
      "address": "인천광역시 부평구 부평동 274번지 21호",
      "latitude": 37.4899158,
      "longitude": 126.7109847
    },
    {
      "no": 129,
      "name": "쥬라기동물종합병원",
      "address": "인천광역시 부평구 부평동 115번지 18호",
      "latitude": 37.4982676,
      "longitude": 126.7321707
    },
    {
      "no": 130,
      "name": "조재진동물병원",
      "address": "인천광역시 부평구 산곡동 411번지 23호",
      "latitude": 37.504241,
      "longitude": 126.7114205
    },
    {
      "no": 131,
      "name": "계양동물병원",
      "address": "인천광역시 계양구 효성동 320번지 1호",
      "latitude": 37.5276654,
      "longitude": 126.7105708
    },
    {
      "no": 132,
      "name": "AVC 동물메디컬센터",
      "address": "인천광역시 계양구 계산동 919번지  3동",
      "latitude": 37.5437532,
      "longitude": 126.729022
    },
    {
      "no": 133,
      "name": "다오동물병원",
      "address": "인천광역시 계양구 계산동 1062번지 하이베라스 123,124호 D동",
      "latitude": 37.5385997,
      "longitude": 126.7361076
    },
    {
      "no": 134,
      "name": "쿨펫동물병원",
      "address": "인천광역시 계양구 계산동 1061번지 홈플러스 2층",
      "latitude": 37.5395037,
      "longitude": 126.7362102
    },
    {
      "no": 135,
      "name": "계산동물병원",
      "address": "인천광역시 계양구 작전동 855번지 14호 2층",
      "latitude": 37.5362462,
      "longitude": 126.7229781
    },
    {
      "no": 136,
      "name": "쿨펫동물병원",
      "address": "인천광역시 계양구 작전동 911번지 1호 이마트",
      "latitude": 37.5310482999999,
      "longitude": 126.7368992
    },
    {
      "no": 137,
      "name": "자연동물병원",
      "address": "인천광역시 계양구 작전동 428번지 6호  101호",
      "latitude": 37.5266444,
      "longitude": 126.7229867
    },
    {
      "no": 138,
      "name": "해림동물병원",
      "address": "인천광역시 계양구 작전동 864번지 39호",
      "latitude": 37.53247,
      "longitude": 126.7212374
    },
    {
      "no": 139,
      "name": "아이러브펫 동물병원 작전점",
      "address": "인천광역시 계양구 작전동 448번지 7호 홈플러스 3층",
      "latitude": 37.5267702,
      "longitude": 126.721895
    },
    {
      "no": 140,
      "name": "한스동물병원",
      "address": "인천광역시 계양구 동양동 640번지 15호",
      "latitude": 37.5591851,
      "longitude": 126.7572812
    },
    {
      "no": 141,
      "name": "신영재동물병원",
      "address": "인천광역시 계양구 병방동 426번지",
      "latitude": 37.5488807,
      "longitude": 126.7413539
    },
    {
      "no": 142,
      "name": "하나 동물병원",
      "address": "인천광역시 계양구 작전동 949번지 작전역 서해그랑블 205호",
      "latitude": 37.527315,
      "longitude": 126.7201552
    },
    {
      "no": 143,
      "name": "이지 동물병원",
      "address": "인천광역시 계양구 병방동 422번지",
      "latitude": 37.548416,
      "longitude": 126.741098
    },
    {
      "no": 144,
      "name": "신통방통 동물병원",
      "address": "인천광역시 계양구 작전동 863번지",
      "latitude": 37.5324013,
      "longitude": 126.722913
    },
    {
      "no": 145,
      "name": "계양 24시 SKY 동물병원",
      "address": "인천광역시 계양구 작전동 901번지 4호",
      "latitude": 37.5313526,
      "longitude": 126.7342536
    },
    {
      "no": 146,
      "name": "소나무동물메디컬 센터",
      "address": "인천광역시 계양구 효성동 75번지 3호 효성동메트하임 101동 101호",
      "latitude": 37.535457,
      "longitude": 126.7171567
    },
    {
      "no": 147,
      "name": "모코동물의료센터",
      "address": "인천광역시 계양구 계산동 1080번지 2호 연세차메디칼센터 103호",
      "latitude": 37.535157,
      "longitude": 126.7382142
    },
    {
      "no": 148,
      "name": "닥터팬더 동물병원",
      "address": "인천광역시 계양구 용종동 207번지 1호 인천 계양 코아루 센트럴파크",
      "latitude": 37.5422608,
      "longitude": 126.7388319
    },
    {
      "no": 149,
      "name": "한솔 동물병원",
      "address": "인천광역시 계양구 계산동 918번지 2호",
      "latitude": 37.5435762,
      "longitude": 126.7298281
    },
    {
      "no": 150,
      "name": "아마존 동물병원",
      "address": "인천광역시 계양구 임학동 67번지 7호  101호",
      "latitude": 37.5452579,
      "longitude": 126.7370661
    },
    {
      "no": 151,
      "name": "계양 동물 메디컬 센터",
      "address": "인천광역시 계양구 계산동 942번지 37호 1층",
      "latitude": 37.5421637,
      "longitude": 126.7219143
    },
    {
      "no": 152,
      "name": "재영 동물병원",
      "address": "인천광역시 계양구 작전동 901번지 4호 한샘프라자",
      "latitude": 37.5309068,
      "longitude": 126.7341268
    },
    {
      "no": 153,
      "name": "작전 동물병원",
      "address": "인천광역시 계양구 작전동 925번지 1호",
      "latitude": 37.5298958,
      "longitude": 126.7349427
    },
    {
      "no": 154,
      "name": "청라종합동물병원",
      "address": "인천광역시 서구 경서동 958번지 1호 롯데캐슬단지내상가 C동",
      "latitude": 37.5561447,
      "longitude": 126.6511945
    },
    {
      "no": 155,
      "name": "우리동물병원",
      "address": "인천광역시 서구 연희동 687번지 2호",
      "latitude": 37.5490304,
      "longitude": 126.6764123
    },
    {
      "no": 156,
      "name": "메이플동물병원",
      "address": "인천광역시 서구 원당동 824번지 6호",
      "latitude": 37.5938846,
      "longitude": 126.6977479
    },
    {
      "no": 157,
      "name": "가정동물병원",
      "address": "인천광역시 서구 가정동 517번지 32호",
      "latitude": 37.5160212,
      "longitude": 126.6731122
    },
    {
      "no": 158,
      "name": "하얀기린 동물병원",
      "address": "인천광역시 서구 연희동 796번지 7호 청라골드클래스 커낼웨이",
      "latitude": 37.5313081,
      "longitude": 126.6539406
    },
    {
      "no": 159,
      "name": "동물에 반하다 동물병원",
      "address": "인천광역시 서구 청라동 151번지 4호",
      "latitude": 37.5338595,
      "longitude": 126.6384884
    },
    {
      "no": 160,
      "name": "J동물병원",
      "address": "인천광역시 서구 청라동 157번지 15호 커낼힐스빌",
      "latitude": 37.5326144,
      "longitude": 126.6449216
    },
    {
      "no": 161,
      "name": "길동물병원",
      "address": "인천광역시 서구 신현동 303번지",
      "latitude": 37.5184789,
      "longitude": 126.6726053
    },
    {
      "no": 162,
      "name": "검단종합동물병원",
      "address": "인천광역시 서구 마전동 1020번지 14호",
      "latitude": 37.5940394,
      "longitude": 126.6724441
    },
    {
      "no": 163,
      "name": "청라 루비 동물병원",
      "address": "인천광역시 서구 경서동 850번지 3호",
      "latitude": 37.5561447,
      "longitude": 126.6511945
    },
    {
      "no": 164,
      "name": "정이룸 동물병원",
      "address": "인천광역시 서구 당하동 1092번지 5호",
      "latitude": 37.5932711,
      "longitude": 126.6764319
    },
    {
      "no": 165,
      "name": "온누리 동물병원",
      "address": "인천광역시 서구 마전동 909번지 9호",
      "latitude": 37.6027348,
      "longitude": 126.656734
    },
    {
      "no": 166,
      "name": "검암동물병원",
      "address": "인천광역시 서구 검암동 613번지 1호",
      "latitude": 37.5653159,
      "longitude": 126.6765983
    },
    {
      "no": 167,
      "name": "진현우동물병원",
      "address": "인천광역시 서구 석남동 454번지 3호",
      "latitude": 37.5121292,
      "longitude": 126.6720138
    },
    {
      "no": 168,
      "name": "청라호수동물메디컬센터",
      "address": "인천광역시 서구 청라동 105번지 62호",
      "latitude": 37.525477,
      "longitude": 126.6313544
    },
    {
      "no": 169,
      "name": "이오동물병원",
      "address": "인천광역시 서구 검암동 506번지 1호 동곡프라자",
      "latitude": 37.5665526,
      "longitude": 126.6813929
    },
    {
      "no": 170,
      "name": "연희동물병원",
      "address": "인천광역시 서구 심곡동 303번지 6호",
      "latitude": 37.5433372,
      "longitude": 126.6772956
    },
    {
      "no": 171,
      "name": "쪼꼬동물메디컬센터",
      "address": "인천광역시 서구 가정동 606번지 2호 2층",
      "latitude": 37.5293623,
      "longitude": 126.664773
    },
    {
      "no": 172,
      "name": "루원하이동물병원",
      "address": "인천광역시 서구 가정동 619번지 4호 드림타워 103호",
      "latitude": 37.5263725999999,
      "longitude": 126.6712939
    },
    {
      "no": 173,
      "name": "삼성종합동물병원",
      "address": "인천광역시 서구 석남동 579번지 3호",
      "latitude": 37.5005767,
      "longitude": 126.6722494
    },
    {
      "no": 174,
      "name": "토닥토닥동물병원",
      "address": "인천광역시 서구 가좌동 309번지 인천가좌두산위브트레지움 2단지",
      "latitude": 37.4898294,
      "longitude": 126.6737062
    },
    {
      "no": 175,
      "name": "청라공감동물병원",
      "address": "인천광역시 서구 연희동 801번지 1호 청라 풍림 엑슬루타워",
      "latitude": 37.5478281,
      "longitude": 126.6759783
    },
    {
      "no": 176,
      "name": "24시 더원 동물병원",
      "address": "인천광역시 서구 원당동 0번지",
      "latitude": 37.5968985,
      "longitude": 126.7079205
    },
    {
      "no": 177,
      "name": "이기쁨동물병원",
      "address": "인천광역시 서구 가정동 0번지 루원시티 SK Leaders VIEW 301동 B119호",
      "latitude": 37.5238402,
      "longitude": 126.6712416
    },
    {
      "no": 178,
      "name": "리브동물의료센터",
      "address": "인천광역시 서구 왕길동 641번지 10호 검단KB빌딩",
      "latitude": 37.6012338,
      "longitude": 126.6547037
    },
    {
      "no": 179,
      "name": "가온동물의료센터",
      "address": "인천광역시 서구 가정동 619번지 7호",
      "latitude": 37.5263725999999,
      "longitude": 126.6712939
    },
    {
      "no": 180,
      "name": "라임동물병원",
      "address": "인천광역시 서구 청라동 127번지 2호 1층",
      "latitude": 37.5368505,
      "longitude": 126.6534752
    },
    {
      "no": 181,
      "name": "코지동물의료센터 서구청점",
      "address": "인천광역시 서구 심곡동 255번지 3호 대화빌딩",
      "latitude": 37.5419275,
      "longitude": 126.6760313
    },
    {
      "no": 182,
      "name": "행복한산책 동물병원",
      "address": "인천광역시 서구 청라동 105번지 26호 1층",
      "latitude": 37.525477,
      "longitude": 126.6313544
    },
    {
      "no": 183,
      "name": "아이케어 동물병원",
      "address": "인천광역시 서구 청라동 167번지 1호 청라리치아노",
      "latitude": 37.5321148,
      "longitude": 126.6574778
    },
    {
      "no": 184,
      "name": "24시 더블유 동물의료센터",
      "address": "인천광역시 서구 청라동 157번지 21호 청라한신더휴커낼웨이",
      "latitude": 37.5324383,
      "longitude": 126.647428
    },
    {
      "no": 185,
      "name": "루원 센트럴 동물의료센터",
      "address": "인천광역시 서구 가정동 0번지 루원시티2차 SK Leaders VIEW 302동 B121호",
      "latitude": 37.5235451,
      "longitude": 126.6812547
    },
    {
      "no": 186,
      "name": "이영수 고양이 병원",
      "address": "인천광역시 서구 가정동 645번지 1호  301호",
      "latitude": 37.5263737,
      "longitude": 126.6726079
    },
    {
      "no": 187,
      "name": "우신&스퀘어 동물병원",
      "address": "인천광역시 서구 청라동 171번지 9호",
      "latitude": 37.5316104,
      "longitude": 126.6613993
    },
    {
      "no": 188,
      "name": "아람동물의료센터",
      "address": "인천광역시 서구 원당동 0번지 아인시티 주차타워",
      "latitude": 37.5935302,
      "longitude": 126.709236
    },
    {
      "no": 189,
      "name": "아이비유동물병원",
      "address": "인천광역시 서구 원당동 1024번지 검단 금호어울림 센트럴",
      "latitude": 37.5957106,
      "longitude": 126.7143638
    },
    {
      "no": 190,
      "name": "검단이담동물의료센터",
      "address": "인천광역시 서구 원당동 0번지 세중시그니쳐",
      "latitude": 37.5945962,
      "longitude": 126.7167745
    },
    {
      "no": 191,
      "name": "화이트동물병원",
      "address": "인천광역시 서구 마전동 1056번지 6호 강서빌딩",
      "latitude": 37.5947253,
      "longitude": 126.6747961
    },
    {
      "no": 192,
      "name": "굿모닝동물병원",
      "address": "인천광역시 서구 석남동 510번지 6호",
      "latitude": 37.5080249,
      "longitude": 126.6725883
    },
    {
      "no": 193,
      "name": "예 동물병원",
      "address": "인천광역시 서구 마전동 999번지 4호 영남탑스빌아파트 상가",
      "latitude": 37.5983865,
      "longitude": 126.6690266
    },
    {
      "no": 194,
      "name": "쿨펫동물병원",
      "address": "인천광역시 서구 당하동 1065번지 1호 당하 이마트",
      "latitude": 37.5852815,
      "longitude": 126.676118
    },
    {
      "no": 195,
      "name": "쿨펫동물병원",
      "address": "인천광역시 서구 마전동 1031번지 1호 롯데마트",
      "latitude": 37.5945427,
      "longitude": 126.6645118
    },
    {
      "no": 196,
      "name": "원당동물병원",
      "address": "인천광역시 서구 당하동 1028번지 7호 창신프라자",
      "latitude": 37.5931942,
      "longitude": 126.6978803
    },
    {
      "no": 197,
      "name": "도희동물병원",
      "address": "인천광역시 서구 심곡동 333번지 7호 1층",
      "latitude": 37.5449416,
      "longitude": 126.6723082
    },
    {
      "no": 198,
      "name": "종합",
      "address": "인천광역시 강화군 강화읍 관청리 119번지 9호 7통",
      "latitude": 37.7457709,
      "longitude": 126.4880991
    },
    {
      "no": 199,
      "name": "서울동물",
      "address": "인천광역시 강화군 강화읍 남산리",
      "latitude": 37.7364673,
      "longitude": 126.4793176
    },
    {
      "no": 200,
      "name": "베스트",
      "address": "인천광역시 강화군 강화읍 갑곳리 519번지 2호",
      "latitude": 37.7405227,
      "longitude": 126.5047977
    },
    {
      "no": 201,
      "name": "인천강화옹진축협 동물병원",
      "address": "인천광역시 강화군 강화읍 관청리 117번지 1호",
      "latitude": 37.7454932,
      "longitude": 126.4884917
    },
    {
      "no": 202,
      "name": "한마음",
      "address": "인천광역시 강화군 강화읍 남산리 18번지 3호",
      "latitude": 37.7443523,
      "longitude": 126.4872758
    },
    {
      "no": 203,
      "name": "디디동물병원",
      "address": "인천광역시 강화군 강화읍 갑곳리 364번지",
      "latitude": 37.7421349,
      "longitude": 126.5005609
    },
    {
      "no": 204,
      "name": "중앙동물병원",
      "address": "인천광역시 강화군 강화읍 남산리 279번지 1호",
      "latitude": 37.7376042,
      "longitude": 126.4871824
    },
    {
      "no": 205,
      "name": "바울 동물병원",
      "address": "인천광역시 강화군 강화읍 남산리 43번지 3호 2층",
      "latitude": 37.7414857,
      "longitude": 126.4879938
    },
    {
      "no": 206,
      "name": "Dr.G 동물병원",
      "address": "인천광역시 강화군 선원면 창리 493번지 희년빌딩 106호",
      "latitude": 37.7347568,
      "longitude": 126.4887859
    },
    {
      "no": 207,
      "name": "백령동물병원",
      "address": "인천광역시 옹진군 백령면 진촌리 1129번지 4호",
      "latitude": 37.9715822,
      "longitude": 124.7186697
    },
    {
      "no": 208,
      "name": "삼성동물종합병원",
      "address": "인천광역시 미추홀구 주안동 678번지 7호",
      "latitude": 37.4525374,
      "longitude": 126.6673407
    },
    {
      "no": 209,
      "name": "한국동물병원",
      "address": "인천광역시 미추홀구 용현동 627번지 399호",
      "latitude": 37.4497059,
      "longitude": 126.639572
    },
    {
      "no": 210,
      "name": "아이러브펫동물병원",
      "address": "인천광역시 미추홀구 용현동 648번지 홈플러스 인하점 지하1층 8동",
      "latitude": 37.4476859,
      "longitude": 126.6507762
    },
    {
      "no": 211,
      "name": "지오동물병원",
      "address": "인천광역시 미추홀구 학익동 437번지 31호",
      "latitude": 37.4437648,
      "longitude": 126.6630266
    },
    {
      "no": 212,
      "name": "주안동물병원",
      "address": "인천광역시 미추홀구 주안동 24번지 2호",
      "latitude": 37.4658333,
      "longitude": 126.6806137
    },
    {
      "no": 213,
      "name": "아나파동물병원",
      "address": "인천광역시 미추홀구 주안동 505번지 1호",
      "latitude": 37.4578256,
      "longitude": 126.6784392
    },
    {
      "no": 214,
      "name": "중앙가축병원",
      "address": "인천광역시 미추홀구 주안동 72번지 11호",
      "latitude": 37.4583319,
      "longitude": 126.6866895
    },
    {
      "no": 215,
      "name": "닥터파파동물병원",
      "address": "인천광역시 미추홀구 주안동 1309번지",
      "latitude": 37.4450073,
      "longitude": 126.6785733
    },
    {
      "no": 216,
      "name": "안상수동물병원",
      "address": "인천광역시 미추홀구 용현동 622번지 149호",
      "latitude": 37.4537933,
      "longitude": 126.6380528
    },
    {
      "no": 217,
      "name": "으뜸동물병원",
      "address": "인천광역시 미추홀구 주안동 465번지 2호",
      "latitude": 37.4562606,
      "longitude": 126.6803902
    },
    {
      "no": 218,
      "name": "24시퍼스트동물의료센터",
      "address": "인천광역시 미추홀구 주안동 929번지 16호 보미 리즌빌",
      "latitude": 37.4623797,
      "longitude": 126.6901061
    },
    {
      "no": 219,
      "name": "포인트동물의료센터",
      "address": "인천광역시 미추홀구 용현동 577번지 42호",
      "latitude": 37.4535791,
      "longitude": 126.6398192
    },
    {
      "no": 220,
      "name": "시드니종합동물병원",
      "address": "인천광역시 미추홀구 주안동 1467번지 동경프라자",
      "latitude": 37.4504048,
      "longitude": 126.6801685
    },
    {
      "no": 221,
      "name": "사랑애동물메디컬센터",
      "address": "인천광역시 미추홀구 주안동 302번지 1호 삼성생명빌딩",
      "latitude": 37.4577096,
      "longitude": 126.6875287
    },
    {
      "no": 222,
      "name": "노아 동물병원",
      "address": "인천광역시 미추홀구 도화동 0번지 도화프라자",
      "latitude": 37.466128,
      "longitude": 126.6685204
    },
    {
      "no": 223,
      "name": "펫홈종합동물병원",
      "address": "인천광역시 미추홀구 주안동 1471번지 11호",
      "latitude": 37.4530764,
      "longitude": 126.6802108
    },
    {
      "no": 224,
      "name": "하인츠동물병원",
      "address": "인천광역시 미추홀구 용현동 604번지 5호 이한프라자",
      "latitude": 37.4473964,
      "longitude": 126.6499909
    },
    {
      "no": 225,
      "name": "바른동물병원",
      "address": "인천광역시 미추홀구 학익동 260번지 22호",
      "latitude": 37.4433044,
      "longitude": 126.6638329
    },
    {
      "no": 226,
      "name": "학익동물병원",
      "address": "인천광역시 미추홀구 학익동 214번지 4호",
      "latitude": 37.4419054,
      "longitude": 126.6634049
    },
    {
      "no": 227,
      "name": "브라운동물병원",
      "address": "인천광역시 미추홀구 숭의동 293번지 19호 1층",
      "latitude": 37.4585966,
      "longitude": 126.6498336
    },
    {
      "no": 228,
      "name": "페트로 동물병원",
      "address": "인천광역시 미추홀구 용현동 621번지 68호",
      "latitude": 37.4521061,
      "longitude": 126.6376882
    },
    {
      "no": 229,
      "name": "아라종합동물병원",
      "address": "인천광역시 미추홀구 주안동 241번지 9호",
      "latitude": 37.4647182,
      "longitude": 126.678151
    },
    {
      "no": 230,
      "name": "온누리동물병원",
      "address": "인천광역시 미추홀구 용현동 146번지 275호",
      "latitude": 37.4575483,
      "longitude": 126.6575069
    },
    {
      "no": 231,
      "name": "24시 건국 본 동물병원",
      "address": "인천광역시 미추홀구 주안동 1464번지 22호",
      "latitude": 37.4487704999999,
      "longitude": 126.6800261
    }
  ]
}